markers = [

   {
     "name": "Canada",
     "oda": 4196.45,
     "lat": 45.4214,
     "lng": -75.6919
   },
   {
     "name": "France",
     "oda": 10370.87,
     "lat": 48.8567,
     "lng": 2.3508
   },
   {
     "name": "Germany",
     "oda": 16248.67,
     "lat": 52.5167,
     "lng": 13.3833
   },
   {
     "name": "Italy",
     "oda": 3342.05,
     "lat": 41.9,
     "lng": 12.5
   },
   {
     "name": "Japan",
     "oda": 9188.29,
     "lat": 35.6833,
     "lng": 139.6833
   },
   {
     "name": "England",
     "oda": 19386.5,
     "lat": 51.5072,
     "lng": -0.1275
   },
   {
     "name": "USA",
     "oda": 32728.62,
     "lat": 38.9047,
     "lng": -77.0164
   }
];
